time_ms,lat,lng,altitude_m,speed_kmh,course_deg,roll_deg,pitch_deg,yaw_deg,satellites,hdop
131457,43.744346,-79.479508,199.4,0.0,0.0,0.03,0.0,0.0,12,0.95
132496,43.744344,-79.479509,199.4,0.07,0.0,0.06,0.0,0.0,12,0.95
133535,43.744344,-79.479509,199.4,0.02,0.0,0.12,0.0,0.0,12,0.95
134576,43.744344,-79.47951,199.2,0.06,0.0,0.18,0.0,0.0,12,0.95
135615,43.744343,-79.479512,199.0,0.15,0.0,0.24,0.0,0.0,12,0.95
136665,43.744342,-79.479513,198.8,0.04,0.0,0.3,0.0,0.0,12,0.95
137717,43.744341,-79.479515,198.4,0.04,0.0,0.36,0.0,0.0,12,0.95
138774,43.744341,-79.479517,198.2,0.04,0.0,0.42,0.0,0.0,12,0.9
140112,43.744343,-79.479519,197.9,0.02,0.0,0.48,0.0,0.0,12,0.9
141519,43.744343,-79.479519,197.9,0.02,0.0,0.54,0.0,0.0,12,0.9
142575,43.744345,-79.479521,197.7,0.0,0.0,0.6,0.0,0.0,12,0.86
143631,43.744346,-79.479522,197.6,0.02,0.0,0.65,0.0,0.0,12,0.86
144689,43.744347,-79.479522,197.8,0.02,0.0,0.71,0.0,0.0,12,0.86
145752,43.744349,-79.479522,197.8,0.19,0.0,0.77,-29.67,0.0,12,0.86
147231,43.744343,-79.479525,196.9,0.02,0.0,0.83,-29.67,0.0,12,0.86
148508,43.744343,-79.479525,196.9,0.02,0.0,0.89,-29.67,0.0,12,0.86
149564,43.74434,-79.479527,196.6,0.09,0.0,0.94,0.0,0.0,12,0.86
150619,43.74434,-79.479528,196.5,0.07,0.0,1.0,0.0,0.0,12,0.86
151675,43.74434,-79.479527,196.6,0.07,0.0,1.06,0.0,0.0,12,0.86
152730,43.74434,-79.479527,196.8,0.04,0.0,1.11,0.0,0.0,12,0.86
153865,43.744342,-79.479527,196.9,0.02,0.0,1.17,0.0,0.0,12,0.86
155473,43.744344,-79.479527,196.9,0.02,0.0,1.22,0.0,0.0,12,0.86
156534,43.744345,-79.479527,197.1,0.11,0.0,1.28,0.0,0.0,12,0.86
157589,43.744346,-79.479526,197.3,0.17,0.0,1.33,0.0,0.0,12,0.86
158644,43.744347,-79.479525,197.5,0.09,0.0,1.39,0.0,0.0,12,0.86
159700,43.744348,-79.479525,197.6,0.06,0.0,1.44,0.0,0.0,12,0.86
160757,43.744349,-79.479524,197.8,0.0,0.0,1.49,0.0,0.0,12,0.8
162268,43.744351,-79.479523,198.0,0.15,0.0,1.54,0.0,0.0,12,0.8
163526,43.744351,-79.479523,198.0,0.15,0.0,1.59,0.0,0.0,12,0.8
164583,43.744351,-79.479523,198.0,0.15,9.0,1.64,0.0,9.0,12,0.8
165640,43.74435,-79.479523,197.9,0.02,9.0,1.69,0.0,9.0,12,0.8
166699,43.74435,-79.479523,197.9,0.0,9.0,1.74,0.0,9.0,12,0.8
167756,43.74435,-79.479523,197.8,0.02,9.0,1.79,0.0,9.0,12,0.8
169245,43.744352,-79.479524,197.9,0.09,9.0,1.84,0.0,9.0,12,0.8
170524,43.744352,-79.479524,197.9,0.09,9.0,1.89,0.0,9.0,12,0.8
171581,43.744351,-79.479524,197.7,0.04,9.0,1.93,0.0,9.0,12,0.8
172638,43.744351,-79.479525,197.6,0.06,9.0,1.98,0.0,9.0,12,0.8
173695,43.744352,-79.479524,197.7,0.04,9.0,2.02,0.0,9.0,12,0.8
174753,43.744352,-79.479523,197.8,0.06,9.0,2.07,0.0,9.0,12,0.8
176213,43.744351,-79.479525,197.4,0.13,9.0,2.11,0.0,9.0,12,0.8
177523,43.744351,-79.479525,197.4,0.13,9.0,2.15,0.0,9.0,12,0.8
178580,43.744352,-79.479525,197.6,0.13,9.0,2.19,0.0,9.0,12,0.8
179637,43.744352,-79.479524,197.7,0.07,9.0,2.23,0.0,9.0,12,0.8
180694,43.744352,-79.479523,197.8,0.13,9.0,2.27,0.0,9.0,12,0.8
181751,43.744352,-79.479523,197.9,0.13,9.0,2.31,0.0,9.0,12,0.8
183173,43.744351,-79.479521,198.2,0.07,9.0,2.35,0.0,9.0,12,0.88
184517,43.744351,-79.479521,198.2,0.07,9.0,2.39,0.0,9.0,12,0.88
185574,43.744349,-79.47952,198.5,0.04,9.0,2.42,0.0,9.0,12,0.8
186631,43.744349,-79.479521,198.4,0.09,9.0,2.46,0.0,9.0,12,0.8
187689,43.744349,-79.47952,198.7,0.04,9.0,2.49,0.0,9.0,12,0.8
188749,43.744349,-79.47952,198.7,0.06,9.0,2.52,0.0,9.0,12,0.8
190107,43.744348,-79.47952,198.8,0.04,9.0,2.56,0.0,9.0,12,0.8
191516,43.744348,-79.47952,198.8,0.04,9.0,2.59,0.0,9.0,12,0.8
192573,43.744347,-79.479521,198.7,0.04,9.0,2.62,0.0,9.0,12,0.8
193630,43.744346,-79.47952,198.9,0.0,9.0,2.65,0.0,9.0,12,0.8
194688,43.744346,-79.479521,199.0,0.02,9.0,2.67,0.0,9.0,12,0.8
195746,43.744346,-79.479522,199.0,0.02,9.0,2.7,0.0,9.0,12,0.8
197097,43.744346,-79.479523,198.8,0.02,9.0,2.73,0.0,9.0,12,0.8
198514,43.744346,-79.479523,198.8,0.02,9.0,2.75,0.0,9.0,12,0.8
199573,43.744346,-79.479524,198.5,0.07,9.0,2.77,0.0,9.0,12,0.8
200631,43.744346,-79.479525,198.5,0.04,9.0,2.8,0.0,9.0,12,0.8
201663,43.744346,-79.479526,198.4,0.02,9.0,2.82,0.0,9.0,12,0.8
202695,43.744345,-79.479526,198.4,0.15,9.0,2.84,0.0,9.0,12,0.8
203727,43.744345,-79.479525,198.5,0.17,9.0,2.86,0.0,9.0,12,0.8
204759,43.744345,-79.479525,198.5,0.0,9.0,2.87,0.0,9.0,12,0.8
205937,43.744343,-79.479525,198.6,0.35,9.0,2.89,0.0,9.0,12,0.8
207169,43.744343,-79.479525,198.7,0.35,9.0,2.91,0.0,9.0,12,0.81
208359,43.744343,-79.479525,198.7,0.35,9.0,2.92,0.0,9.0,12,0.81
209479,43.744344,-79.479525,198.7,0.02,9.0,2.93,0.0,9.0,12,0.81
210511,43.744345,-79.479525,198.9,0.07,9.0,2.95,0.0,9.0,12,0.8
211543,43.744346,-79.479526,198.9,0.04,9.0,2.96,0.0,9.0,12,0.8
212575,43.744347,-79.479526,199.0,0.06,9.0,2.97,0.0,9.0,12,0.8
213607,43.744347,-79.479527,199.0,0.04,9.0,2.97,0.0,9.0,12,0.8
214639,43.744348,-79.479527,199.1,0.19,9.0,2.98,14.2,9.0,12,0.8
215697,43.744348,-79.479526,199.2,0.37,9.0,2.99,14.2,9.0,12,0.88
216755,43.744348,-79.479527,199.3,0.28,9.0,2.99,14.2,9.0,12,0.8
218241,43.744348,-79.479529,199.2,0.3,9.0,3.0,0.0,9.0,12,0.8
219523,43.744348,-79.479529,199.2,0.3,9.0,3.0,0.0,9.0,12,0.8
220583,43.744346,-79.479529,199.4,0.02,9.0,3.0,0.0,9.0,12,0.8
221641,43.744346,-79.479529,199.4,0.31,9.0,3.0,-27.35,9.0,12,0.8
222673,43.744345,-79.479532,198.6,0.39,9.0,3.0,-13.77,9.0,12,0.8
223705,43.744344,-79.479534,198.8,0.81,9.0,3.0,-13.77,9.0,12,0.8
224737,43.744343,-79.479537,198.7,0.11,9.0,2.99,13.58,9.0,12,0.8
225831,43.744345,-79.479535,198.7,0.37,320.37,2.99,10.4,320.37,12,0.88
227437,43.744344,-79.479535,198.8,0.37,320.37,2.98,1.94,320.37,12,0.8
228544,43.744344,-79.479532,198.6,1.37,7.34,2.97,1.94,7.34,12,0.8
229602,43.744344,-79.47953,198.7,0.2,7.34,2.97,-8.47,7.34,12,0.8
230662,43.744346,-79.479534,198.3,0.02,7.34,2.96,0.0,7.34,12,0.8
231720,43.744346,-79.479536,197.8,0.09,7.34,2.95,0.0,7.34,12,0.8
232803,43.744348,-79.479537,197.8,0.02,7.34,2.93,0.0,7.34,12,0.8
234404,43.744348,-79.479538,197.7,0.07,7.34,2.92,0.0,7.34,12,0.8
235534,43.744348,-79.479538,197.8,0.15,7.34,2.91,0.0,7.34,12,0.8
236592,43.744349,-79.479539,197.9,0.02,7.34,2.89,0.0,7.34,12,0.8
237658,43.744349,-79.479539,197.9,0.06,7.34,2.88,0.0,7.34,12,0.8
238724,43.74435,-79.47954,197.9,0.11,7.34,2.86,0.0,7.34,12,0.8
239917,43.744349,-79.479543,197.8,0.06,7.34,2.84,0.0,7.34,12,0.8
241521,43.744349,-79.479545,197.5,0.06,7.34,2.82,0.0,7.34,12,0.8
242587,43.744349,-79.479548,197.3,0.0,7.34,2.8,0.0,7.34,12,0.8
243653,43.74435,-79.47955,197.1,0.04,7.34,2.78,0.0,7.34,12,0.8
244719,43.744351,-79.479551,197.1,0.02,7.34,2.75,0.0,7.34,12,0.8
245847,43.744354,-79.479552,197.0,0.13,7.34,2.73,0.0,7.34,12,0.8
247514,43.744355,-79.479553,197.0,0.13,7.34,2.7,0.0,7.34,12,0.8
248580,43.744355,-79.479554,197.0,0.0,7.34,2.68,0.0,7.34,12,0.8
249646,43.744356,-79.479555,197.0,0.07,7.34,2.65,0.0,7.34,12,0.8
250712,43.744357,-79.479555,197.2,0.04,7.34,2.62,0.0,7.34,12,0.8
251805,43.744358,-79.479556,197.4,0.13,7.34,2.59,0.0,7.34,12,0.8
253512,43.74436,-79.479556,197.1,0.19,7.34,2.56,0.0,7.34,12,0.8
254578,43.74436,-79.479556,197.0,0.11,7.34,2.53,-18.2,7.34,12,0.8
255644,43.744359,-79.479556,196.8,0.48,7.34,2.49,-18.2,7.34,12,0.8
256710,43.744359,-79.479557,196.7,0.09,7.34,2.46,-18.2,7.34,12,0.85
257793,43.744357,-79.479559,196.4,0.02,7.34,2.43,0.0,7.34,12,0.8
259504,43.744359,-79.479558,196.4,0.09,7.34,2.39,0.0,7.34,12,0.8
260570,43.744359,-79.479558,196.4,0.09,7.34,2.35,0.0,7.34,12,0.8
261636,43.74436,-79.479558,196.3,0.07,7.34,2.31,0.0,7.34,12,0.8
262702,43.744359,-79.479559,196.2,0.06,7.34,2.28,0.0,7.34,12,0.8
263777,43.744358,-79.479559,196.1,0.06,7.34,2.24,0.0,7.34,12,0.8
265448,43.744358,-79.479559,196.1,0.26,7.34,2.2,0.0,7.34,12,0.8
266555,43.744359,-79.479559,196.1,0.17,7.34,2.16,0.0,7.34,12,0.8
267621,43.744358,-79.47956,196.0,0.07,7.34,2.11,0.0,7.34,12,0.8
268687,43.744358,-79.47956,196.0,0.02,7.34,2.07,0.0,7.34,12,0.8
269753,43.744359,-79.47956,196.1,0.0,7.34,2.03,0.0,7.34,12,0.8
271340,43.74436,-79.479558,196.4,0.07,7.34,1.98,0.0,7.34,12,0.8
272547,43.744361,-79.479557,196.4,0.04,7.34,1.94,0.0,7.34,12,0.8
273613,43.744361,-79.479558,196.2,0.09,7.34,1.89,0.0,7.34,12,0.8
274681,43.744361,-79.479558,196.2,0.13,7.34,1.84,0.0,7.34,12,0.8
275747,43.744361,-79.479559,196.3,0.06,7.34,1.8,0.0,7.34,12,0.8
277274,43.744361,-79.479559,196.4,0.06,7.34,1.75,0.0,7.34,12,0.8
278541,43.744361,-79.479559,196.4,0.06,7.34,1.7,0.0,7.34,12,0.8
279607,43.744361,-79.479559,196.4,0.09,10.0,1.65,0.0,10.0,12,0.8
280673,43.744361,-79.479558,196.4,0.06,10.0,1.6,0.0,10.0,12,0.8
281739,43.744361,-79.479558,196.5,0.09,10.0,1.55,0.0,10.0,12,0.8
283124,43.744363,-79.479559,196.8,0.09,10.0,1.49,0.0,10.0,12,0.8
284533,43.744363,-79.479559,196.8,0.09,10.0,1.44,0.0,10.0,12,0.8
285601,43.744364,-79.479559,196.6,0.17,10.0,1.39,0.0,10.0,12,0.8
286667,43.744365,-79.479557,196.5,0.11,10.0,1.34,0.0,10.0,12,0.8
287734,43.744363,-79.479559,196.4,0.19,10.0,1.28,0.0,10.0,12,0.8
289034,43.744359,-79.479561,196.3,0.07,10.0,1.23,0.0,10.0,12,0.8
290538,43.744359,-79.479561,196.3,0.07,10.0,1.17,0.0,10.0,12,0.8
291603,43.74436,-79.479561,196.4,0.02,10.0,1.12,0.0,10.0,12,0.8
292669,43.744358,-79.479563,196.2,0.11,10.0,1.06,0.0,10.0,12,0.8
293735,43.744357,-79.479563,196.1,0.09,10.0,1.0,0.0,10.0,12,0.8
295070,43.744358,-79.479566,195.8,0.02,10.0,0.95,0.0,10.0,12,0.8
296531,43.744358,-79.479566,195.8,0.02,10.0,0.89,0.0,10.0,12,0.8
297596,43.744358,-79.479568,195.7,0.19,10.0,0.83,0.0,10.0,12,0.8
298667,43.744359,-79.479568,195.5,0.11,10.0,0.78,0.0,10.0,12,0.8
299738,43.744359,-79.479568,195.4,0.06,10.0,0.72,0.0,10.0,12,0.8
301191,43.74436,-79.479566,195.4,0.09,10.0,0.66,0.0,10.0,12,0.8
302546,43.74436,-79.479566,195.4,0.09,10.0,0.6,0.0,10.0,12,0.8
303617,43.74436,-79.479565,195.4,0.04,10.0,0.54,0.0,10.0,12,0.79
304688,43.74436,-79.479565,195.3,0.09,10.0,0.48,0.0,10.0,12,0.79
305759,43.74436,-79.479566,195.1,0.22,10.0,0.42,0.0,10.0,12,0.85
307510,43.744361,-79.479565,195.2,0.09,10.0,0.36,0.0,10.0,12,0.79
308583,43.744362,-79.479565,195.1,0.04,10.0,0.3,0.0,10.0,12,0.85
309654,43.744362,-79.479565,195.1,0.11,10.0,0.24,0.0,10.0,12,0.79
310725,43.744362,-79.479565,195.1,0.0,10.0,0.18,0.0,10.0,12,0.79
312000,43.744363,-79.479564,195.2,0.11,10.0,0.12,0.0,10.0,12,0.79
313536,43.744363,-79.479564,195.2,0.11,10.0,0.06,0.0,10.0,12,0.79
314607,43.744363,-79.479563,195.6,0.06,10.0,0.0,0.0,10.0,12,0.79
315678,43.744364,-79.479563,195.7,0.17,10.0,-0.06,0.0,10.0,12,0.79
316749,43.744364,-79.479563,195.9,0.07,10.0,-0.12,0.0,10.0,12,0.79
318274,43.744364,-79.479563,196.3,0.02,10.0,-0.18,0.0,10.0,12,0.7
319564,43.744364,-79.479563,196.3,0.02,10.0,-0.23,0.0,10.0,12,0.7
320637,43.744364,-79.479564,196.8,0.09,10.0,-0.29,0.0,10.0,12,0.7
321710,43.744364,-79.479564,197.0,0.13,10.0,-0.35,0.0,10.0,12,0.7
322838,43.744365,-79.479563,197.1,0.07,10.0,-0.41,0.0,10.0,12,0.7
324529,43.744365,-79.479563,197.5,0.07,10.0,-0.47,0.0,10.0,12,0.7
325602,43.744365,-79.479562,197.7,0.15,10.0,-0.53,0.0,10.0,12,0.7
326675,43.744365,-79.479562,197.7,0.44,10.0,-0.59,0.0,10.0,12,0.7
327748,43.744363,-79.479564,197.6,0.15,10.0,-0.65,0.0,10.0,12,0.7
329423,43.744361,-79.479565,197.6,0.09,10.0,-0.71,0.0,10.0,12,0.69
330564,43.744361,-79.479564,197.6,0.04,10.0,-0.77,0.0,10.0,12,0.69
331637,43.744361,-79.479564,197.7,0.0,10.0,-0.82,0.0,10.0,12,0.69
332710,43.74436,-79.479564,197.8,0.02,10.0,-0.88,9.19,10.0,12,0.69
333840,43.74436,-79.479562,197.9,0.61,10.0,-0.94,2.77,10.0,12,0.69
335529,43.74436,-79.479562,197.8,0.61,10.0,-1.0,2.77,10.0,12,0.69
336602,43.744356,-79.479563,197.6,0.07,10.0,-1.05,-6.42,10.0,12,0.69
337675,43.744354,-79.479561,197.7,0.11,10.0,-1.11,0.0,10.0,12,0.69
338748,43.744351,-79.479559,197.8,0.11,10.0,-1.16,0.0,10.0,12,0.69
340348,43.744347,-79.479556,197.6,0.04,10.0,-1.22,0.0,10.0,12,0.69
341564,43.744345,-79.479556,197.6,0.06,10.0,-1.27,0.0,10.0,12,0.69
342637,43.744344,-79.479554,197.4,0.06,10.0,-1.33,0.0,10.0,12,0.69
343710,43.744343,-79.479552,197.4,0.07,10.0,-1.38,0.0,10.0,12,0.69
344835,43.744341,-79.47955,197.4,0.09,10.0,-1.43,0.0,10.0,12,0.69
346536,43.74434,-79.479548,197.6,0.09,10.0,-1.49,0.0,10.0,12,0.66
347616,43.74434,-79.479547,197.8,0.15,10.0,-1.54,0.0,10.0,12,0.66
348696,43.74434,-79.479547,197.9,0.06,10.0,-1.59,0.0,10.0,12,0.66
349780,43.744341,-79.479547,198.2,0.07,10.0,-1.64,7.97,10.0,12,0.66
351544,43.744341,-79.479549,198.3,0.46,10.0,-1.69,26.04,10.0,12,0.66
352626,43.744341,-79.479548,198.5,0.48,10.0,-1.74,26.04,10.0,12,0.66
353706,43.744341,-79.479548,198.8,0.19,10.0,-1.79,18.07,10.0,12,0.66
354899,43.744341,-79.479549,199.0,0.04,10.0,-1.84,0.0,10.0,12,0.66
356546,43.744341,-79.47955,199.2,0.04,10.0,-1.88,0.0,10.0,12,0.66
357626,43.744341,-79.479551,199.2,0.06,10.0,-1.93,0.0,10.0,12,0.66
358706,43.744342,-79.479552,199.2,0.15,10.0,-1.97,0.0,10.0,12,0.66
359820,43.744342,-79.479553,199.3,0.04,10.0,-2.02,0.0,10.0,12,0.68
361543,43.744344,-79.479554,199.2,0.19,10.0,-2.06,0.0,10.0,12,0.66
362550,43.744344,-79.479554,199.2,0.19,10.0,-2.11,0.0,10.0,12,0.66
363567,43.744344,-79.479554,199.2,0.19,10.0,-2.15,0.0,10.0,12,0.66
364575,43.744344,-79.479554,199.2,0.19,10.0,-2.19,0.0,10.0,12,0.66
365701,43.744344,-79.479554,199.2,0.19,10.0,-2.23,0.0,10.0,12,0.66
366707,43.744344,-79.479554,199.2,0.19,10.0,-2.27,0.0,10.0,12,0.66
367713,43.744344,-79.479554,199.2,0.19,10.0,-2.31,0.0,10.0,12,0.66
369264,43.744344,-79.479554,199.2,0.19,10.0,-2.35,0.0,10.0,9,1.12
370637,43.744344,-79.479554,199.2,0.19,10.0,-2.38,29.45,10.0,9,1.12
371717,43.744391,-79.479543,217.4,1.74,254.89,-2.42,-0.21,254.89,12,0.7
372874,43.744392,-79.479555,212.2,0.35,232.62,-2.45,-29.88,232.62,12,0.66
374553,43.744395,-79.479553,209.4,0.35,232.62,-2.49,-89.0,232.62,12,0.66
375625,43.744385,-79.479561,208.3,0.11,232.62,-2.52,-89.0,232.62,12,0.66
376697,43.744372,-79.479568,206.3,0.19,232.62,-2.55,-89.0,232.62,12,0.66
377769,43.744369,-79.479569,204.6,0.07,232.62,-2.58,-89.0,232.62,12,0.66
379358,43.744374,-79.479567,203.7,0.2,232.62,-2.61,-59.33,232.62,12,0.66
380574,43.744373,-79.479564,203.7,0.13,232.62,-2.64,-59.33,232.62,12,0.66
381646,43.744374,-79.479564,203.1,0.17,232.62,-2.67,-29.67,232.62,12,0.66
382718,43.744374,-79.479565,203.0,0.09,232.62,-2.7,-29.67,232.62,12,0.66
383879,43.744369,-79.479566,203.0,0.07,232.62,-2.72,0.0,232.62,12,0.69
385527,43.74437,-79.479566,202.6,0.07,232.62,-2.75,0.0,232.62,12,0.66
386599,43.744369,-79.479565,202.8,0.09,232.62,-2.77,0.0,232.62,12,0.66
387671,43.744369,-79.479565,202.8,0.17,232.62,-2.79,0.0,232.62,12,0.66
388743,43.744369,-79.479564,202.9,0.17,232.62,-2.82,0.0,232.62,12,0.66
390300,43.744369,-79.479564,203.0,0.13,232.62,-2.84,0.0,232.62,12,0.66
391553,43.744369,-79.479564,203.0,0.22,232.62,-2.85,0.0,232.62,12,0.66
392625,43.744369,-79.479563,203.0,0.06,232.62,-2.87,0.0,232.62,12,0.66
393697,43.74437,-79.479562,203.1,0.02,232.62,-2.89,0.0,232.62,12,0.66
394769,43.744371,-79.479562,203.0,0.09,232.62,-2.9,-19.2,232.62,12,0.66
396526,43.744373,-79.47956,202.6,0.52,232.62,-2.92,-19.2,232.62,12,0.76
397598,43.744374,-79.479558,202.9,0.28,232.62,-2.93,-19.2,232.62,12,0.66
398670,43.744375,-79.479557,203.2,0.09,232.62,-2.94,12.56,232.62,12,0.66
399742,43.744376,-79.479555,203.4,0.87,232.62,-2.96,-11.76,232.62,12,0.76
401284,43.74437,-79.479558,202.8,0.43,232.62,-2.96,-11.76,232.62,12,0.66
402553,43.74437,-79.479558,202.8,0.43,232.62,-2.97,-24.31,232.62,12,0.66
403625,43.744369,-79.479557,203.1,0.15,232.62,-2.98,0.0,232.62,12,0.66
404697,43.744369,-79.479557,203.3,0.19,232.62,-2.99,0.0,232.62,12,0.66
405769,43.744368,-79.479557,203.2,0.11,232.62,-2.99,14.48,232.62,12,0.76
407523,43.74437,-79.479557,203.5,0.65,232.62,-3.0,14.48,232.62,12,0.66
408595,43.744372,-79.479555,203.9,0.13,232.62,-3.0,14.48,232.62,12,0.66
409667,43.744372,-79.479555,203.9,0.37,232.62,-3.0,0.0,232.62,12,0.66
410739,43.744372,-79.479554,204.1,0.09,232.62,-3.0,0.0,232.62,12,0.66
412220,43.744373,-79.479552,204.4,0.17,232.62,-3.0,0.0,232.62,12,0.68
413552,43.744373,-79.479552,204.4,0.17,232.62,-3.0,23.7,232.62,12,0.68
414624,43.744374,-79.47955,204.8,0.46,232.62,-2.99,23.7,232.62,12,0.66
415696,43.744375,-79.479549,204.9,0.33,232.62,-2.99,23.7,232.62,12,0.66
416768,43.744375,-79.479549,205.0,0.02,232.62,-2.98,0.0,232.62,12,0.66
418526,43.744377,-79.479547,205.1,0.35,232.62,-2.98,0.0,232.62,12,0.66
419598,43.744378,-79.479546,205.1,0.13,232.62,-2.97,0.0,232.62,12,0.66
420670,43.744378,-79.479546,205.1,0.24,232.62,-2.96,0.0,232.62,12,0.66
421742,43.744378,-79.479545,205.2,0.3,232.62,-2.95,0.0,232.62,12,0.66
423274,43.744378,-79.479545,205.0,0.13,232.62,-2.94,0.0,232.62,12,0.66
424555,43.744378,-79.479545,205.0,0.13,232.62,-2.92,0.0,232.62,12,0.66
425627,43.744379,-79.479545,204.8,0.2,232.62,-2.91,0.0,232.62,12,0.66
426699,43.744379,-79.479545,204.8,0.26,232.62,-2.89,-14.07,232.62,12,0.66
427772,43.744379,-79.479545,204.7,0.37,232.62,-2.88,-7.13,232.62,12,0.66
429526,43.744378,-79.479546,204.8,0.54,232.62,-2.86,-7.13,232.62,12,0.66
430606,43.744379,-79.479546,204.8,0.43,232.62,-2.84,6.94,232.62,12,0.66
431686,43.744378,-79.479547,204.8,0.2,232.62,-2.82,0.0,232.62,12,0.66
432766,43.744377,-79.479548,204.7,0.04,232.62,-2.8,0.0,232.62,12,0.66
434537,43.744376,-79.479549,204.8,0.02,232.62,-2.78,0.0,232.62,12,0.66
435624,43.744376,-79.47955,204.8,0.04,232.62,-2.75,0.0,232.62,12,0.66
436704,43.744375,-79.47955,204.9,0.28,232.62,-2.73,0.0,232.62,12,0.68
437839,43.744376,-79.479549,204.8,0.2,232.62,-2.7,0.0,232.62,12,0.68
439545,43.744375,-79.479551,204.8,0.2,232.62,-2.68,0.0,232.62,12,0.68
440627,43.744375,-79.479551,204.8,0.22,232.62,-2.65,0.0,232.62,12,0.68
441707,43.744376,-79.479551,204.8,0.07,232.62,-2.62,0.0,232.62,12,0.66
442913,43.744375,-79.479551,204.7,0.24,232.62,-2.59,0.0,232.62,12,0.68
444546,43.744376,-79.479551,204.6,0.24,232.62,-2.56,0.0,232.62,12,0.84
445626,43.744376,-79.479551,204.6,0.15,232.62,-2.53,0.0,232.62,12,0.66
446706,43.744376,-79.479551,204.4,0.17,232.62,-2.5,0.0,232.62,12,0.68
447891,43.744375,-79.479551,204.5,0.09,232.62,-2.46,0.0,232.62,12,0.68
449546,43.744374,-79.479552,204.1,0.09,232.62,-2.43,0.0,232.62,12,0.68
450626,43.744375,-79.479551,204.1,0.2,232.62,-2.39,0.0,232.62,12,0.68
451708,43.744374,-79.479552,203.9,0.26,232.62,-2.36,0.0,232.62,12,0.66
452926,43.744372,-79.479554,203.8,0.09,232.62,-2.32,0.0,232.62,12,0.68
454548,43.744372,-79.479554,203.6,0.09,232.62,-2.28,0.0,232.62,12,0.68
455628,43.744372,-79.479554,203.6,0.09,232.62,-2.24,0.0,232.62,12,0.68
456708,43.744371,-79.479555,203.6,0.39,232.62,-2.2,0.0,232.62,12,0.68
457959,43.74437,-79.479557,203.2,0.07,232.62,-2.16,0.0,232.62,12,0.66
459547,43.74437,-79.479557,203.2,0.07,232.62,-2.12,0.0,232.62,12,0.66
460627,43.744369,-79.479556,202.8,0.09,232.62,-2.07,0.0,232.62,12,0.8
461707,43.744369,-79.479557,202.6,0.02,232.62,-2.03,-17.54,232.62,12,0.68
462903,43.744369,-79.479556,202.4,0.46,232.62,-1.99,-17.54,232.62,12,0.68
464549,43.744368,-79.479556,202.4,0.46,232.62,-1.94,-37.64,232.62,12,0.66
465629,43.744369,-79.479555,202.1,0.57,232.62,-1.89,-20.11,232.62,12,0.76
466709,43.744369,-79.479555,202.0,0.13,232.62,-1.85,-45.17,232.62,12,0.76
467928,43.744367,-79.479556,201.5,0.39,232.62,-1.8,-8.82,232.62,12,0.66
469548,43.744367,-79.479556,201.7,0.39,232.62,-1.75,-8.82,232.62,12,0.66
470628,43.744368,-79.479556,201.8,0.07,232.62,-1.7,16.24,232.62,12,0.76
471708,43.744368,-79.479556,201.8,0.06,232.62,-1.65,0.0,232.62,12,0.76
472922,43.744369,-79.479554,201.7,0.33,232.62,-1.6,0.0,232.62,12,0.76
474550,43.744371,-79.479553,201.5,0.33,232.62,-1.55,0.0,232.62,12,0.68
475630,43.744369,-79.479554,201.2,0.15,232.62,-1.5,0.0,232.62,12,0.66
476710,43.744366,-79.479555,200.9,0.04,232.62,-1.45,0.0,232.62,12,0.66
477928,43.744359,-79.479554,200.7,0.06,232.62,-1.39,0.0,232.62,12,0.66
479549,43.744356,-79.479554,200.3,0.06,232.62,-1.34,0.0,232.62,12,0.66
480629,43.744354,-79.479555,200.1,0.04,232.62,-1.29,0.0,232.62,12,0.66
481709,43.744354,-79.479554,200.1,0.11,232.62,-1.23,0.0,232.62,12,0.66
482926,43.744354,-79.479552,200.1,0.19,232.62,-1.18,0.0,232.62,12,0.66
484549,43.744355,-79.479551,200.0,0.19,232.62,-1.12,0.0,232.62,12,0.66
485631,43.744355,-79.479551,200.1,0.3,232.62,-1.07,0.0,232.62,12,0.66
486711,43.744355,-79.479551,200.1,0.17,232.62,-1.01,0.0,232.62,12,0.66
487962,43.744355,-79.479552,200.0,0.09,232.62,-0.95,0.0,232.62,12,0.66
489548,43.744355,-79.479552,200.0,0.09,232.62,-0.9,0.0,232.62,12,0.66
490628,43.744356,-79.479553,199.9,0.33,232.62,-0.84,-4.33,232.62,12,0.66
491720,43.74436,-79.479554,199.8,1.43,309.58,-0.78,-4.33,309.58,12,0.66
493065,43.744362,-79.479554,199.8,0.06,309.58,-0.72,-4.33,309.58,12,0.66
494558,43.744362,-79.479554,199.8,0.06,309.58,-0.66,0.0,309.58,12,0.66
495638,43.744362,-79.479555,199.8,0.11,309.58,-0.61,0.0,309.58,12,0.66
496720,43.744363,-79.479555,199.8,0.13,309.58,-0.55,0.0,309.58,12,0.66
498086,43.744363,-79.479556,199.5,0.09,309.58,-0.49,0.0,309.58,12,0.66
499557,43.744363,-79.479556,199.5,0.09,309.58,-0.43,0.0,309.58,12,0.66
500637,43.744364,-79.479556,199.5,0.26,309.58,-0.37,0.0,309.58,12,0.76
501717,43.744365,-79.479556,199.4,0.22,309.58,-0.31,-20.5,309.58,12,0.76
503049,43.744366,-79.479558,199.1,0.44,309.58,-0.25,-20.5,309.58,12,0.76
504554,43.744366,-79.479558,199.1,0.44,309.58,-0.19,-20.5,309.58,12,0.76
505634,43.744367,-79.479559,198.8,0.09,309.58,-0.13,0.0,309.58,12,0.66
506714,43.744368,-79.47956,198.7,0.2,309.58,-0.07,0.0,309.58,12,0.66
508010,43.744367,-79.479561,198.7,0.07,309.58,-0.01,0.0,309.58,12,0.76
509555,43.744367,-79.479561,198.7,0.07,309.58,0.05,0.0,309.58,12,0.76
510635,43.744367,-79.479562,198.4,0.04,309.58,0.11,0.0,309.58,12,0.66
511715,43.744367,-79.479562,198.4,0.02,309.58,0.17,0.0,309.58,12,0.66
513018,43.744367,-79.479563,198.3,0.07,309.58,0.23,0.0,309.58,12,0.66
514553,43.744367,-79.479563,198.3,0.07,309.58,0.29,0.0,309.58,12,0.66
515633,43.744366,-79.479564,198.3,0.04,309.58,0.35,0.0,309.58,12,0.66
516713,43.744366,-79.479565,198.4,0.15,309.58,0.41,0.0,309.58,12,0.66
517982,43.744366,-79.479567,198.5,0.02,309.58,0.47,0.0,309.58,12,0.66
519555,43.744366,-79.479567,198.5,0.02,309.58,0.53,0.0,309.58,12,0.66
520635,43.744364,-79.479567,198.4,0.07,309.58,0.59,-2.29,309.58,12,0.66
521727,43.74436,-79.479569,198.3,2.74,236.89,0.65,-2.29,236.89,12,0.76
523249,43.744358,-79.47957,198.5,0.13,236.89,0.7,-2.29,236.89,12,0.66
524563,43.744358,-79.47957,198.5,0.13,236.89,0.76,0.0,236.89,12,0.66
525643,43.744359,-79.479571,198.8,0.06,19.0,0.82,0.0,19.0,12,0.66
526723,43.744359,-79.479572,198.8,0.15,19.0,0.88,0.0,19.0,12,0.66
528130,43.74436,-79.479571,198.7,0.02,19.0,0.93,0.0,19.0,12,0.66
529571,43.74436,-79.479571,198.7,0.02,19.0,0.99,0.0,19.0,12,0.66
530653,43.744363,-79.479569,198.6,0.06,19.0,1.05,0.0,19.0,12,0.66
531733,43.744363,-79.479568,198.4,0.06,19.0,1.1,0.0,19.0,12,0.76
533293,43.744362,-79.479567,198.2,0.09,19.0,1.16,0.0,19.0,12,0.66
534569,43.744362,-79.479567,198.2,0.09,19.0,1.21,0.0,19.0,12,0.66
535649,43.74436,-79.479566,198.2,0.02,19.0,1.27,0.0,19.0,12,0.67
536729,43.74436,-79.479567,198.1,0.0,19.0,1.32,0.0,19.0,12,0.66
538166,43.744359,-79.479567,198.3,0.04,19.0,1.38,0.0,19.0,12,0.66
539577,43.744359,-79.479567,198.3,0.04,19.0,1.43,0.0,19.0,12,0.66
540662,43.744357,-79.479568,198.4,0.04,19.0,1.48,0.0,19.0,12,0.66
541749,43.744357,-79.479568,198.4,0.07,19.0,1.53,0.0,19.0,12,0.66
543533,43.744355,-79.479569,198.1,0.06,19.0,1.59,0.0,19.0,12,0.66
544618,43.744355,-79.479569,198.0,0.24,19.0,1.64,0.0,19.0,12,0.66
545703,43.744355,-79.47957,197.9,0.09,19.0,1.69,0.0,19.0,12,0.66
546920,43.744355,-79.47957,198.0,0.04,19.0,1.74,0.0,19.0,12,0.66
548559,43.744355,-79.479572,197.5,0.04,19.0,1.78,0.0,19.0,12,0.66
549644,43.744355,-79.479572,197.6,0.15,19.0,1.83,0.0,19.0,12,0.66
550729,43.744354,-79.479573,197.2,0.2,19.0,1.88,0.0,19.0,12,0.66
552305,43.744354,-79.479574,197.1,0.04,19.0,1.93,0.0,19.0,12,0.66
553580,43.744354,-79.479574,197.1,0.04,19.0,1.97,0.0,19.0,12,0.66
554667,43.744355,-79.479575,196.9,0.11,19.0,2.02,0.0,19.0,12,0.66
555752,43.744356,-79.479575,196.8,0.19,19.0,2.06,0.0,19.0,12,0.66
557538,43.744356,-79.479577,196.5,0.15,19.0,2.1,0.0,19.0,12,0.66
558623,43.744355,-79.479578,196.6,0.07,19.0,2.15,0.0,19.0,12,0.66
559708,43.744355,-79.479578,196.7,0.11,19.0,2.19,0.0,19.0,12,0.66
560979,43.744356,-79.479577,196.8,0.13,19.0,2.23,0.0,19.0,12,0.63
562567,43.744356,-79.479577,196.8,0.13,19.0,2.27,0.0,19.0,12,0.63
563654,43.744357,-79.479574,197.3,0.04,19.0,2.31,0.0,19.0,12,0.63
564741,43.744357,-79.479574,197.3,0.13,19.0,2.34,0.0,19.0,12,0.63
566528,43.744359,-79.479573,197.3,0.06,19.0,2.38,0.0,19.0,12,0.63
567615,43.744359,-79.479573,197.3,0.09,19.0,2.42,0.0,19.0,12,0.63
568702,43.744359,-79.479573,197.3,0.04,19.0,2.45,0.0,19.0,12,0.63
569908,43.744359,-79.479572,197.3,0.43,19.0,2.49,-15.11,19.0,12,0.63
571564,43.744358,-79.479573,197.1,0.43,19.0,2.52,-15.11,19.0,12,0.63
572651,43.744358,-79.479573,197.0,0.07,19.0,2.55,-15.11,19.0,12,0.63
573738,43.744358,-79.479573,197.0,0.02,19.0,2.58,0.0,19.0,12,0.63
575513,43.744358,-79.479574,196.9,0.02,19.0,2.61,0.0,19.0,12,0.63
576600,43.744359,-79.479572,196.8,0.02,19.0,2.64,0.0,19.0,12,0.63
577689,43.744359,-79.479572,196.7,0.09,19.0,2.67,0.0,19.0,12,0.63
578805,43.744359,-79.479572,196.5,0.13,19.0,2.7,0.0,19.0,12,0.63
580557,43.744359,-79.479568,196.9,0.11,19.0,2.72,0.0,19.0,12,0.65
581644,43.74436,-79.479568,196.9,0.15,19.0,2.75,0.0,19.0,12,0.63
582731,43.744359,-79.479567,197.0,0.07,19.0,2.77,0.0,19.0,12,0.63
584366,43.744359,-79.479567,197.1,0.24,19.0,2.79,0.0,19.0,12,0.63
585588,43.744359,-79.479567,197.1,0.31,19.0,2.81,0.0,19.0,12,0.63
586682,43.74436,-79.479567,197.2,0.11,19.0,2.83,0.0,19.0,12,0.64
587776,43.744359,-79.479566,197.3,0.0,19.0,2.85,0.0,19.0,12,0.63
589552,43.744359,-79.479564,197.1,0.33,19.0,2.87,0.0,19.0,12,0.63
590639,43.744359,-79.479563,197.2,0.06,19.0,2.89,0.0,19.0,12,0.63
591726,43.744359,-79.479564,197.2,0.22,19.0,2.9,0.0,19.0,12,0.63
593277,43.744358,-79.479564,197.2,0.04,19.0,2.92,0.0,19.0,12,0.63
594584,43.744358,-79.479564,197.2,0.04,19.0,2.93,0.0,19.0,12,0.63
595671,43.744357,-79.479563,197.3,0.35,112.0,2.94,0.0,112.0,12,0.63
596758,43.744357,-79.479563,197.4,0.2,112.0,2.95,0.0,112.0,12,0.63
598550,43.744357,-79.479563,197.7,0.13,112.0,2.96,0.0,112.0,12,0.63
599637,43.744358,-79.479563,197.7,0.06,112.0,2.97,-6.52,112.0,12,0.69
600726,43.744357,-79.479565,197.6,0.93,112.0,2.98,-6.52,112.0,12,0.63
602258,43.744356,-79.479564,197.2,0.07,112.0,2.99,-6.52,112.0,12,0.63
603584,43.744356,-79.479564,197.2,0.07,112.0,2.99,0.0,112.0,12,0.63
604671,43.744354,-79.479563,197.0,0.02,45.0,3.0,0.0,45.0,12,0.63
605758,43.744354,-79.479563,197.0,0.04,45.0,3.0,0.0,45.0,12,0.63
607550,43.744354,-79.479563,197.1,0.13,45.0,3.0,0.0,45.0,12,0.63
608637,43.744354,-79.479562,197.2,0.19,45.0,3.0,0.0,45.0,12,0.63
609724,43.744354,-79.479563,197.0,0.09,45.0,3.0,0.0,45.0,12,0.63
611242,43.744353,-79.479562,196.9,0.07,45.0,3.0,0.0,45.0,12,0.63
612584,43.744353,-79.479562,196.9,0.07,45.0,2.99,0.0,45.0,12,0.63
613671,43.744353,-79.479563,196.7,0.07,45.0,2.99,0.0,45.0,12,0.63
614758,43.744352,-79.479564,196.6,0.04,45.0,2.98,0.0,45.0,12,0.63
616550,43.744352,-79.479566,196.6,0.07,45.0,2.98,0.0,45.0,12,0.63
617637,43.744352,-79.479566,196.7,0.19,45.0,2.97,0.0,45.0,12,0.63
618724,43.744352,-79.479565,196.9,0.09,45.0,2.96,0.0,45.0,12,0.65
620265,43.744348,-79.479567,197.0,0.28,45.0,2.95,0.0,45.0,12,0.66
621582,43.744348,-79.479567,197.0,0.28,45.0,2.94,0.0,45.0,12,0.66
622669,43.744345,-79.479568,196.9,0.31,45.0,2.92,0.0,45.0,12,0.63
623759,43.744346,-79.479568,196.9,0.59,45.0,2.91,0.0,45.0,12,0.63
625551,43.744345,-79.47957,197.2,0.07,45.0,2.89,0.0,45.0,12,0.63
626638,43.744347,-79.47957,197.2,0.06,45.0,2.88,0.0,45.0,12,0.63
627725,43.744345,-79.479571,197.2,0.04,45.0,2.86,0.0,45.0,12,0.63
629239,43.744345,-79.479569,197.3,0.31,45.0,2.84,0.0,45.0,12,0.63
630582,43.744345,-79.479569,197.3,0.31,45.0,2.82,-29.67,45.0,12,0.63
631669,43.744345,-79.47957,196.7,0.11,45.0,2.8,-29.67,45.0,12,0.63
632756,43.744344,-79.47957,196.6,0.11,45.0,2.78,-29.67,45.0,12,0.63
634547,43.744345,-79.47957,196.6,0.07,45.0,2.76,0.0,45.0,12,0.63
635636,43.744346,-79.479569,196.5,0.09,45.0,2.73,19.84,45.0,12,0.63
636723,43.744345,-79.479568,196.7,0.39,45.0,2.71,19.84,45.0,12,0.63
638237,43.744345,-79.479568,196.9,0.06,45.0,2.68,19.84,45.0,12,0.63
639580,43.744345,-79.479568,196.9,0.06,45.0,2.65,0.0,45.0,12,0.63
640667,43.744346,-79.479569,196.9,0.02,45.0,2.62,0.0,45.0,12,0.63
641754,43.744346,-79.479568,196.9,0.06,45.0,2.59,0.0,45.0,12,0.63
643545,43.744346,-79.479567,196.8,0.35,45.0,2.56,0.0,45.0,12,0.63
644632,43.744345,-79.479567,196.8,0.06,45.0,2.53,0.0,45.0,12,0.63
645719,43.744345,-79.479567,196.8,0.07,45.0,2.5,17.91,45.0,12,0.63
647187,43.744348,-79.479565,197.1,0.54,45.0,2.47,17.91,45.0,12,0.63
648579,43.744348,-79.479565,197.1,0.54,45.0,2.43,17.91,45.0,12,0.63
649666,43.74435,-79.479563,197.2,0.09,45.0,2.4,0.0,45.0,12,0.63
650753,43.744351,-79.479563,197.3,0.06,45.0,2.36,0.0,45.0,12,0.63
652544,43.744351,-79.479564,197.1,0.15,45.0,2.32,0.0,45.0,12,0.63
653631,43.744352,-79.479565,197.1,0.07,45.0,2.28,0.0,45.0,12,0.63
654718,43.744352,-79.479565,197.3,0.06,45.0,2.24,0.0,45.0,12,0.63
656126,43.744354,-79.479564,197.4,0.11,45.0,2.2,0.0,45.0,12,0.66
657577,43.744354,-79.479564,197.4,0.11,45.0,2.16,0.0,45.0,12,0.66
658664,43.744354,-79.479566,197.3,0.04,45.0,2.12,0.0,45.0,12,0.66
659754,43.744354,-79.479566,197.4,0.13,45.0,2.08,0.0,45.0,12,0.66
661544,43.744353,-79.479567,197.4,0.02,45.0,2.03,0.0,45.0,12,0.62
662631,43.744353,-79.479566,197.4,0.02,45.0,1.99,0.0,45.0,12,0.62
663718,43.744353,-79.479566,197.3,0.02,45.0,1.94,0.0,45.0,12,0.62
665132,43.744352,-79.479566,197.2,0.17,45.0,1.9,0.0,45.0,12,0.62
666578,43.744352,-79.479566,197.2,0.17,45.0,1.85,-18.8,45.0,12,0.62
667665,43.744349,-79.479567,197.0,0.44,45.0,1.8,-18.8,45.0,12,0.62
668752,43.744349,-79.479568,196.9,0.17,45.0,1.75,-18.8,45.0,12,0.62
670542,43.74435,-79.479569,196.6,0.33,45.0,1.71,-13.92,45.0,12,0.64
671632,43.74435,-79.47957,196.5,0.37,45.0,1.66,-25.87,45.0,12,0.62
672715,43.744351,-79.479571,196.4,0.46,45.0,1.61,-25.87,45.0,12,0.69
674090,43.744352,-79.47957,196.5,0.11,45.0,1.55,-11.95,45.0,12,0.69
675575,43.744352,-79.47957,196.5,0.11,45.0,1.5,0.0,45.0,12,0.69
676662,43.744352,-79.479569,196.5,0.0,45.0,1.45,0.0,45.0,12,0.69
677750,43.744352,-79.479569,196.6,0.13,45.0,1.4,0.0,45.0,12,0.62
679540,43.744353,-79.479569,196.8,0.07,45.0,1.34,-18.94,45.0,12,0.62
680627,43.744353,-79.479571,196.5,0.65,45.0,1.29,-18.94,45.0,12,0.62
681714,43.744356,-79.47957,196.5,0.13,45.0,1.24,-18.94,45.0,12,0.62
683145,43.744357,-79.479569,196.8,0.04,45.0,1.18,0.0,45.0,12,0.62
684576,43.744357,-79.479569,196.8,0.04,45.0,1.13,0.0,45.0,12,0.62
685663,43.744357,-79.479572,197.3,0.07,45.0,1.07,0.0,45.0,12,0.62
686750,43.744358,-79.479572,197.3,0.06,45.0,1.01,0.0,45.0,12,0.62
688538,43.744359,-79.479573,197.3,0.06,45.0,0.96,0.0,45.0,12,0.62
689625,43.74436,-79.479573,197.2,0.04,45.0,0.9,-12.31,45.0,12,0.62
690713,43.74436,-79.479572,197.1,0.44,45.0,0.84,-12.31,45.0,12,0.62
692090,43.744361,-79.47957,197.1,0.07,45.0,0.78,-12.31,45.0,12,0.62
693573,43.744361,-79.47957,197.1,0.07,45.0,0.73,0.0,45.0,12,0.62
694663,43.744362,-79.479569,197.0,0.13,45.0,0.67,0.0,45.0,12,0.62
695750,43.744363,-79.479568,197.0,0.09,45.0,0.61,0.0,45.0,12,0.69
697541,43.744363,-79.479568,197.0,0.11,45.0,0.55,0.0,45.0,12,0.62
698628,43.744363,-79.479568,197.0,0.13,45.0,0.49,0.0,45.0,12,0.62
699715,43.744363,-79.479568,196.9,0.06,45.0,0.43,0.0,45.0,12,0.62
701328,43.744367,-79.479567,197.2,0.07,344.57,0.37,0.0,344.57,12,0.62
702585,43.744367,-79.479567,197.2,0.04,344.57,0.31,0.0,344.57,12,0.62
703672,43.744368,-79.479567,197.2,0.06,344.57,0.25,0.0,344.57,12,0.62
704760,43.744367,-79.479566,197.1,0.09,344.57,0.19,0.0,344.57,12,0.62
706552,43.744368,-79.479566,197.0,0.07,344.57,0.13,0.0,344.57,12,0.69
707639,43.744368,-79.479566,197.0,0.04,344.57,0.07,0.0,344.57,12,0.62
708726,43.744367,-79.479566,197.1,0.04,344.57,0.01,13.05,344.57,12,0.62
710278,43.744366,-79.479564,197.3,0.57,344.57,-0.05,13.05,344.57,12,0.7
711585,43.744366,-79.479564,197.3,0.57,344.57,-0.11,13.05,344.57,12,0.7
712672,43.744363,-79.479564,197.3,0.07,30.0,-0.17,0.0,30.0,12,0.62
713760,43.744363,-79.479565,197.3,0.26,30.0,-0.23,0.0,30.0,12,0.62
715554,43.74436,-79.479568,196.5,0.11,30.0,-0.29,0.0,30.0,12,0.62
716642,43.74436,-79.479569,196.3,0.2,30.0,-0.34,0.0,30.0,12,0.62
717732,43.744359,-79.479569,196.5,0.09,30.0,-0.4,0.0,30.0,12,0.63
719356,43.744354,-79.47957,196.8,0.09,30.0,-0.46,0.0,30.0,12,0.62
720590,43.744352,-79.47957,196.8,0.22,30.0,-0.52,0.0,30.0,12,0.62
721677,43.744352,-79.47957,197.1,0.09,30.0,-0.58,-13.44,30.0,12,0.62
722765,43.744351,-79.47957,197.0,0.39,30.0,-0.64,-13.44,30.0,12,0.62
724558,43.744349,-79.47957,197.0,0.11,30.0,-0.7,-13.44,30.0,12,0.62
725645,43.744349,-79.47957,196.8,0.07,30.0,-0.76,0.0,30.0,12,0.62
726732,43.744349,-79.479571,196.7,0.13,30.0,-0.82,0.0,30.0,12,0.62
728364,43.744348,-79.479572,196.6,0.09,30.0,-0.87,0.0,30.0,12,0.62
729602,43.744347,-79.479573,196.6,0.26,30.0,-0.93,23.1,30.0,12,0.62
730691,43.744346,-79.479573,197.0,0.5,30.0,-0.99,23.1,30.0,12,0.62
731833,43.744346,-79.479572,197.0,0.48,30.0,-1.04,23.1,30.0,12,0.62
733557,43.744346,-79.479572,197.1,0.0,30.0,-1.1,0.0,30.0,12,0.62
734645,43.744346,-79.479571,197.3,0.19,30.0,-1.15,0.0,30.0,12,0.62
735733,43.744345,-79.479571,197.4,0.17,30.0,-1.21,0.0,30.0,12,0.62
737370,43.744345,-79.479569,197.7,0.0,30.0,-1.26,0.0,30.0,12,0.62
738591,43.744345,-79.479568,197.7,0.02,30.0,-1.32,0.0,30.0,12,0.62
739686,43.744344,-79.479568,198.0,0.22,30.0,-1.37,0.0,30.0,12,0.62
740784,43.744344,-79.479567,198.2,0.17,30.0,-1.43,0.0,30.0,12,0.62
742558,43.744343,-79.479564,198.5,0.07,30.0,-1.48,0.0,30.0,12,0.62
743645,43.744343,-79.479564,198.6,0.04,30.0,-1.53,0.0,30.0,12,0.62
744732,43.744342,-79.479564,198.7,0.09,30.0,-1.58,0.0,30.0,12,0.62
746350,43.74434,-79.479563,198.9,0.24,30.0,-1.63,0.0,30.0,12,0.62
747590,43.74434,-79.479563,198.9,0.04,30.0,-1.68,0.0,30.0,12,0.62
748677,43.74434,-79.479563,199.0,0.04,30.0,-1.73,0.0,30.0,12,0.62
749764,43.74434,-79.479562,199.0,0.0,30.0,-1.78,0.0,30.0,12,0.62
751552,43.744341,-79.479561,199.1,0.04,30.0,-1.83,0.0,30.0,12,0.62
752639,43.744341,-79.47956,199.2,0.07,30.0,-1.87,0.0,30.0,12,0.62
753728,43.744342,-79.47956,199.3,0.15,30.0,-1.92,0.0,30.0,12,0.62
755304,43.744343,-79.479558,199.3,0.13,30.0,-1.97,0.0,30.0,12,0.62
756586,43.744343,-79.479558,199.3,0.13,30.0,-2.01,0.0,30.0,12,0.62
757673,43.744344,-79.479557,199.2,0.06,30.0,-2.06,0.0,30.0,12,0.62
758760,43.744345,-79.479557,199.3,0.07,30.0,-2.1,0.0,30.0,12,0.62
760554,43.744347,-79.479556,199.1,0.04,30.0,-2.14,0.0,30.0,12,0.59
761643,43.744347,-79.479557,199.1,0.13,30.0,-2.18,0.0,30.0,12,0.59
762732,43.744348,-79.479557,199.1,0.06,30.0,-2.22,0.0,30.0,12,0.59
764386,43.744347,-79.479558,198.9,0.0,30.0,-2.26,0.0,30.0,12,0.59
765597,43.744347,-79.479558,198.9,0.02,30.0,-2.3,0.0,30.0,12,0.59
766686,43.744348,-79.479558,198.9,0.02,30.0,-2.34,0.0,30.0,12,0.59
767791,43.744348,-79.479557,199.0,0.06,30.0,-2.38,0.0,30.0,12,0.59
769561,43.74435,-79.479556,199.1,0.04,30.0,-2.41,0.0,30.0,12,0.59
770650,43.744351,-79.479556,199.1,0.11,30.0,-2.45,0.0,30.0,12,0.6
771739,43.744351,-79.479556,199.2,0.06,30.0,-2.48,0.0,30.0,12,0.59
773520,43.744351,-79.479555,199.3,0.11,30.0,-2.52,0.0,30.0,12,0.59
774609,43.744351,-79.479555,199.3,0.04,30.0,-2.55,0.0,30.0,12,0.59
775698,43.744352,-79.479555,199.2,0.07,30.0,-2.58,0.0,30.0,12,0.59
776923,43.744351,-79.479554,199.2,0.06,30.0,-2.61,0.0,30.0,12,0.59
778569,43.744351,-79.479554,199.3,0.06,30.0,-2.64,0.0,30.0,12,0.59
779658,43.74435,-79.479555,199.3,0.06,30.0,-2.67,0.0,30.0,12,0.59
780747,43.744349,-79.479555,199.6,0.17,30.0,-2.69,0.0,30.0,12,0.59
782539,43.744348,-79.479556,199.6,0.2,30.0,-2.72,0.0,30.0,12,0.59
783628,43.744348,-79.479556,199.7,0.06,30.0,-2.74,0.0,30.0,12,0.59
784717,43.744348,-79.479556,199.6,0.06,30.0,-2.77,0.0,30.0,12,0.59
786158,43.744347,-79.479556,199.5,0.06,30.0,-2.79,0.0,30.0,12,0.59
787581,43.744347,-79.479556,199.5,0.06,30.0,-2.81,-13.91,30.0,12,0.59
788672,43.744346,-79.479556,199.4,0.37,30.0,-2.83,-13.91,30.0,12,0.59
789761,43.744346,-79.479556,199.4,0.04,30.0,-2.85,-13.91,30.0,12,0.59
791557,43.744347,-79.479554,199.4,0.02,30.0,-2.87,0.0,30.0,12,0.59
792646,43.744348,-79.479553,199.4,0.02,30.0,-2.89,0.0,30.0,12,0.59
793735,43.744349,-79.479554,199.3,0.15,30.0,-2.9,0.0,30.0,12,0.61
795453,43.74435,-79.479554,199.2,0.09,30.0,-2.92,0.0,30.0,12,0.59
796597,43.74435,-79.479554,199.1,0.07,30.0,-2.93,0.0,30.0,12,0.59
797686,43.74435,-79.479554,199.0,0.02,30.0,-2.94,0.0,30.0,12,0.59
798790,43.74435,-79.479553,199.0,0.07,30.0,-2.95,0.0,30.0,12,0.59
800563,43.744349,-79.479553,198.9,0.04,30.0,-2.96,0.0,30.0,12,0.59
801652,43.744348,-79.479554,199.0,0.07,30.0,-2.97,0.0,30.0,12,0.59
802741,43.744347,-79.479554,198.9,0.02,30.0,-2.98,0.0,30.0,12,0.59
804521,43.744346,-79.479555,198.6,0.06,30.0,-2.99,0.0,30.0,12,0.59
805610,43.744346,-79.479555,198.4,0.04,30.0,-2.99,0.0,30.0,12,0.59
806699,43.744347,-79.479555,198.3,0.04,30.0,-2.99,0.0,30.0,12,0.59
807900,43.744347,-79.479555,198.1,0.17,30.0,-3.0,0.0,30.0,12,0.59
809594,43.744346,-79.479556,198.3,0.17,30.0,-3.0,0.0,30.0,12,0.59
810696,43.744346,-79.479555,198.3,0.26,30.0,-3.0,0.0,30.0,12,0.59
812060,43.744349,-79.479553,198.0,0.35,30.0,-3.0,0.0,30.0,12,0.59
813604,43.744349,-79.479553,198.0,0.35,30.0,-3.0,13.81,30.0,12,0.59
814706,43.744349,-79.479553,198.1,0.37,30.0,-2.99,13.81,30.0,12,0.59
816174,43.744348,-79.479553,197.7,0.17,30.0,-2.99,13.81,30.0,12,0.59
817618,43.744348,-79.479553,197.7,0.17,30.0,-2.98,-11.05,30.0,12,0.59
818720,43.744345,-79.479555,197.6,0.5,30.0,-2.98,-11.05,30.0,12,0.59
820382,43.744342,-79.479556,197.4,0.22,30.0,-2.97,-11.05,30.0,12,0.59
821622,43.744341,-79.479557,197.4,0.52,30.0,-2.96,0.0,30.0,12,0.59
822724,43.744341,-79.479558,197.1,0.3,30.0,-2.95,0.0,30.0,12,0.59
824484,43.74434,-79.479557,197.1,0.15,30.0,-2.94,0.0,30.0,12,0.59
825628,43.744338,-79.479556,197.1,0.04,30.0,-2.92,0.0,30.0,12,0.59
826730,43.744337,-79.479555,197.1,0.11,30.0,-2.91,0.0,30.0,12,0.59
828543,43.744336,-79.479554,197.0,0.13,30.0,-2.9,-15.6,30.0,12,0.59
829657,43.744335,-79.479556,196.7,0.91,314.34,-2.88,-15.6,314.34,12,0.59
830759,43.744332,-79.479557,196.7,0.63,314.34,-2.86,-1.34,314.34,12,0.59
832594,43.744326,-79.479555,197.2,1.06,39.86,-2.84,14.26,39.86,12,0.59
833696,43.744325,-79.479552,197.3,0.31,39.86,-2.82,3.28,39.86,12,0.59
835292,43.744322,-79.479553,196.8,1.74,301.04,-2.8,-10.98,301.04,12,0.64
836650,43.744322,-79.479553,196.8,1.74,301.04,-2.78,-31.12,301.04,12,0.64
837755,43.744322,-79.479555,196.6,0.37,23.0,-2.76,-20.14,23.0,12,0.59
839593,43.74432,-79.479557,196.9,0.3,280.73,-2.73,-20.14,280.73,12,0.59
840695,43.74432,-79.479556,197.2,0.15,280.73,-2.71,0.0,280.73,12,0.59
841997,43.744321,-79.479555,196.8,0.13,280.73,-2.68,0.0,280.73,12,0.59
843602,43.744321,-79.479555,196.8,0.13,280.73,-2.65,0.0,280.73,12,0.59
844704,43.744319,-79.479554,196.9,0.11,280.73,-2.63,0.0,280.73,12,0.59
846143,43.744317,-79.479554,196.5,0.04,280.73,-2.6,0.0,280.73,12,0.59
847609,43.744317,-79.479554,196.5,0.04,280.73,-2.57,0.0,280.73,12,0.59
848711,43.744316,-79.479556,196.1,0.13,280.73,-2.53,0.0,280.73,12,0.59
850316,43.744315,-79.479557,195.8,0.04,280.73,-2.5,0.0,280.73,12,0.59
851617,43.744315,-79.479557,195.8,0.04,280.73,-2.47,0.0,280.73,12,0.59
852719,43.744315,-79.479558,195.7,0.07,280.73,-2.43,0.0,280.73,12,0.59
854395,43.744315,-79.479557,195.7,0.04,280.73,-2.4,0.0,280.73,12,0.59
855621,43.744316,-79.479557,195.7,0.28,280.73,-2.36,0.0,280.73,12,0.59
856723,43.744315,-79.479557,195.7,0.09,280.73,-2.32,0.0,280.73,12,0.59
858468,43.744314,-79.479558,195.4,0.2,280.73,-2.29,0.0,280.73,12,0.59
859637,43.744313,-79.479557,195.4,0.85,204.59,-2.25,0.0,204.59,12,0.59
860739,43.744312,-79.479556,195.3,0.11,204.59,-2.21,0.0,204.59,12,0.59
862563,43.744312,-79.479554,195.3,0.13,204.59,-2.17,0.0,204.59,12,0.59
863665,43.74431,-79.479554,195.4,0.04,204.59,-2.12,-18.28,204.59,12,0.59
864768,43.74431,-79.479553,195.2,0.46,204.59,-2.08,-18.28,204.59,12,0.59
866590,43.74431,-79.479554,195.4,0.31,204.59,-2.04,-18.28,204.59,12,0.59
867692,43.744309,-79.479555,195.4,0.13,204.59,-1.99,10.16,204.59,12,0.59
868966,43.744309,-79.479554,195.5,0.48,204.59,-1.95,10.16,204.59,12,0.59
870601,43.744309,-79.479554,195.5,0.48,204.59,-1.9,23.98,204.59,12,0.59
871703,43.74431,-79.479554,195.6,0.37,204.59,-1.85,13.81,204.59,12,0.59
873146,43.744312,-79.479553,195.4,0.28,204.59,-1.81,13.81,204.59,12,0.59
874611,43.744312,-79.479553,195.4,0.28,204.59,-1.76,0.0,204.59,12,0.59
875713,43.744314,-79.479551,195.5,0.13,204.59,-1.71,0.0,204.59,12,0.59
877308,43.744313,-79.47955,195.7,0.2,204.59,-1.66,0.0,204.59,12,0.59
878617,43.744313,-79.47955,195.7,0.2,204.59,-1.61,0.0,204.59,12,0.59
879720,43.744315,-79.479547,195.9,0.13,204.59,-1.56,0.0,204.59,12,0.59
881406,43.744315,-79.479546,196.0,0.09,204.59,-1.51,0.0,204.59,12,0.59
882622,43.744314,-79.479546,196.0,0.07,204.59,-1.45,0.0,204.59,12,0.59
883724,43.744314,-79.479546,196.0,0.19,204.59,-1.4,0.0,204.59,12,0.59
885460,43.744315,-79.479546,196.1,0.19,204.59,-1.35,0.0,204.59,12,0.59
886628,43.744315,-79.479546,196.1,0.19,204.59,-1.29,0.0,204.59,12,0.59
887731,43.744316,-79.479546,196.1,0.0,204.59,-1.24,0.0,204.59,12,0.59
889546,43.744318,-79.479546,196.1,0.02,204.59,-1.19,0.0,204.59,12,0.59
890649,43.744318,-79.479546,196.0,0.07,204.59,-1.13,0.0,204.59,12,0.59
891751,43.744318,-79.479545,195.9,0.06,204.59,-1.07,0.0,204.59,12,0.59
893575,43.744319,-79.479545,195.7,0.06,204.59,-1.02,0.0,204.59,12,0.59
894677,43.744319,-79.479545,195.6,0.04,204.59,-0.96,0.0,204.59,12,0.59
895820,43.744319,-79.479545,195.6,0.15,204.59,-0.9,0.0,204.59,12,0.59
897591,43.744318,-79.479545,195.6,0.33,204.59,-0.85,0.0,204.59,12,0.59
898703,43.744318,-79.479545,195.5,0.17,204.59,-0.79,0.0,204.59,12,0.59
900195,43.74432,-79.479544,195.2,0.19,204.59,-0.73,0.0,204.59,12,0.59
901606,43.74432,-79.479544,195.2,0.19,204.59,-0.67,0.0,204.59,12,0.59
902708,43.744319,-79.479543,195.3,0.07,204.59,-0.61,0.0,204.59,12,0.59
904196,43.744319,-79.479543,195.4,0.07,204.59,-0.56,0.0,204.59,12,0.59
905611,43.744319,-79.479543,195.4,0.07,204.59,-0.5,0.0,204.59,12,0.59
906713,43.74432,-79.479543,195.3,0.07,204.59,-0.44,0.0,204.59,12,0.59
908276,43.74432,-79.479542,195.2,0.07,204.59,-0.38,0.0,204.59,12,0.59
909617,43.74432,-79.479542,195.2,0.07,204.59,-0.32,0.0,204.59,12,0.59
910721,43.74432,-79.479542,195.2,0.06,17.0,-0.26,0.0,17.0,12,0.59
912419,43.74432,-79.479542,195.2,0.11,17.0,-0.2,0.0,17.0,12,0.59
913623,43.744321,-79.479542,195.2,0.07,17.0,-0.14,0.0,17.0,12,0.59
914725,43.744321,-79.479542,195.3,0.17,17.0,-0.08,0.0,17.0,12,0.59
916513,43.744323,-79.47954,195.2,0.09,17.0,-0.02,0.0,17.0,12,0.61
917623,43.744323,-79.47954,195.1,0.06,17.0,0.04,0.0,17.0,12,0.59
918725,43.744323,-79.47954,195.1,0.07,17.0,0.1,0.0,17.0,12,0.59
920443,43.744324,-79.47954,195.1,0.02,17.0,0.16,0.0,17.0,12,0.61
921618,43.744323,-79.47954,195.1,0.07,17.0,0.22,0.0,17.0,12,0.61
922722,43.744323,-79.47954,195.1,0.13,17.0,0.28,0.0,17.0,12,0.59
924438,43.744323,-79.47954,195.0,0.09,17.0,0.34,0.0,17.0,12,0.59
925623,43.744323,-79.47954,195.0,0.13,17.0,0.4,0.0,17.0,12,0.59
926725,43.744323,-79.47954,195.4,0.04,17.0,0.46,0.0,17.0,12,0.59
928513,43.744321,-79.479541,195.7,0.07,17.0,0.52,0.0,17.0,12,0.59
929626,43.744321,-79.479541,195.9,0.02,17.0,0.58,0.0,17.0,12,0.59
930728,43.744322,-79.479541,195.8,0.11,17.0,0.64,0.0,17.0,12,0.59
932540,43.744322,-79.479541,196.0,0.09,17.0,0.69,0.0,17.0,12,0.59
933642,43.744322,-79.479541,196.3,0.11,17.0,0.75,0.0,17.0,12,0.59
934746,43.744323,-79.479541,196.5,0.02,17.0,0.81,0.0,17.0,12,0.59
936569,43.744323,-79.479541,196.5,0.07,17.0,0.87,0.0,17.0,12,0.59
937671,43.744323,-79.479541,196.3,0.11,17.0,0.93,0.0,17.0,12,0.59
938804,43.744323,-79.479543,196.3,0.72,17.0,0.98,0.0,17.0,12,0.59
940583,43.744324,-79.479543,196.1,0.04,17.0,1.04,0.0,17.0,12,0.59
941685,43.744324,-79.479543,196.1,0.15,17.0,1.09,0.0,17.0,12,0.59
942895,43.744325,-79.479543,196.1,0.04,17.0,1.15,0.0,17.0,12,0.59
944594,43.744325,-79.479543,196.0,0.04,17.0,1.21,0.0,17.0,12,0.59
945696,43.744326,-79.479542,195.8,0.19,17.0,1.26,0.0,17.0,12,0.59
947084,43.744326,-79.47954,196.0,0.06,17.0,1.31,0.0,17.0,12,0.6
948596,43.744326,-79.47954,196.0,0.06,17.0,1.37,0.0,17.0,12,0.6
949696,43.744325,-79.479541,196.2,0.24,17.0,1.42,0.0,17.0,12,0.6
951044,43.744326,-79.47954,196.2,0.06,17.0,1.47,0.0,17.0,12,0.59
952601,43.744326,-79.47954,196.2,0.06,17.0,1.53,0.0,17.0,12,0.59
953703,43.744327,-79.47954,196.3,0.07,17.0,1.58,0.0,17.0,12,0.59
955151,43.744328,-79.479539,196.3,0.06,17.0,1.63,0.0,17.0,12,0.59
956607,43.744328,-79.479539,196.3,0.06,17.0,1.68,0.0,17.0,12,0.59
957709,43.744329,-79.479538,196.5,0.07,17.0,1.73,0.0,17.0,12,0.59
959268,43.74433,-79.479537,196.6,0.0,17.0,1.78,0.0,17.0,12,0.59
960615,43.74433,-79.479537,196.6,0.0,17.0,1.82,0.0,17.0,12,0.59
961717,43.744331,-79.479537,196.7,0.04,270.0,1.87,0.0,270.0,12,0.59
963361,43.74433,-79.479537,196.9,0.06,270.0,1.92,0.0,270.0,12,0.59
964619,43.744329,-79.479537,196.9,0.04,270.0,1.96,0.0,270.0,12,0.59
965721,43.744329,-79.479537,196.8,0.02,270.0,2.01,0.0,270.0,12,0.59
967447,43.744328,-79.479537,196.9,0.06,270.0,2.05,0.0,270.0,12,0.59
968622,43.744328,-79.479537,197.0,0.09,270.0,2.1,0.0,270.0,12,0.59
969724,43.744328,-79.479538,196.9,0.04,270.0,2.14,0.0,270.0,12,0.59
971539,43.74433,-79.479538,196.7,0.2,270.0,2.18,0.0,270.0,12,0.59
972641,43.744329,-79.479539,196.9,0.06,270.0,2.22,0.0,270.0,12,0.59
973743,43.744328,-79.479539,196.9,0.15,270.0,2.26,0.0,270.0,12,0.59
975565,43.744326,-79.47954,196.7,0.07,270.0,2.3,0.0,270.0,12,0.59
976667,43.744326,-79.47954,196.8,0.07,270.0,2.34,0.0,270.0,12,0.59
977779,43.744326,-79.47954,196.9,0.06,270.0,2.37,0.0,270.0,12,0.59
979583,43.744324,-79.47954,196.8,0.0,270.0,2.41,0.0,270.0,12,0.59
980686,43.744324,-79.479539,196.8,0.06,270.0,2.45,0.0,270.0,12,0.59
981909,43.744325,-79.479538,197.0,0.07,270.0,2.48,0.0,270.0,12,0.59
983598,43.744325,-79.479538,196.8,0.07,270.0,2.51,0.0,270.0,12,0.59
984700,43.744326,-79.479538,196.9,0.15,270.0,2.55,0.0,270.0,12,0.59
986107,43.744325,-79.479537,197.2,0.19,270.0,2.58,0.0,270.0,12,0.59
987606,43.744325,-79.479537,197.2,0.19,270.0,2.61,0.0,270.0,12,0.59
988708,43.744325,-79.479537,197.0,0.04,270.0,2.64,0.0,270.0,12,0.59
990408,43.744325,-79.479537,196.9,0.09,270.0,2.66,0.0,270.0,12,0.59
991643,43.744325,-79.479538,196.9,0.02,270.0,2.69,0.0,270.0,12,0.59
992756,43.744325,-79.479539,196.9,0.02,270.0,2.72,0.0,270.0,12,0.59
994604,43.744325,-79.479539,196.7,0.02,270.0,2.74,0.0,270.0,12,0.59
995720,43.744325,-79.479539,196.7,0.04,270.0,2.77,0.0,270.0,12,0.59
997558,43.744324,-79.479539,196.7,0.07,270.0,2.79,0.0,270.0,12,0.59
998671,43.744324,-79.479538,197.0,0.04,270.0,2.81,0.0,270.0,12,0.59
999881,43.744324,-79.479539,197.3,0.04,270.0,2.83,0.0,270.0,12,0.59
1001616,43.744325,-79.479539,197.6,0.04,270.0,2.85,0.0,270.0,12,0.59
1002729,43.744324,-79.479538,197.5,0.15,270.0,2.87,0.0,270.0,12,0.59
1004573,43.744324,-79.479536,197.7,0.07,270.0,2.89,0.0,270.0,12,0.59
1005687,43.744323,-79.479536,197.6,0.24,270.0,2.9,0.0,270.0,12,0.59
1007083,43.744323,-79.479538,197.3,0.06,270.0,2.92,0.0,270.0,12,0.59
1008630,43.744323,-79.479538,197.3,0.06,270.0,2.93,0.0,270.0,12,0.59
1009745,43.744324,-79.479541,197.5,0.04,270.0,2.94,0.0,270.0,12,0.59
1011596,43.744325,-79.479543,197.8,0.02,270.0,2.95,0.0,270.0,12,0.59
1012711,43.744325,-79.479543,197.9,0.02,270.0,2.96,0.0,270.0,12,0.59
1014483,43.744325,-79.479544,197.9,0.13,270.0,2.97,0.0,270.0,12,0.59
1015652,43.744325,-79.479545,197.8,0.02,270.0,2.98,0.0,270.0,12,0.59
1016771,43.744325,-79.479545,197.8,0.0,270.0,2.99,0.0,270.0,12,0.59
1018612,43.744325,-79.479545,197.3,0.02,270.0,2.99,0.0,270.0,12,0.59
1019727,43.744325,-79.479544,197.2,0.0,270.0,2.99,0.0,270.0,12,0.59
1021577,43.744325,-79.479546,197.1,0.07,270.0,3.0,0.0,270.0,12,0.59
1022693,43.744325,-79.479547,197.0,0.06,270.0,3.0,0.0,270.0,12,0.59
1024199,43.744325,-79.479547,197.1,0.02,270.0,3.0,0.0,270.0,12,0.59
1025637,43.744325,-79.479547,197.1,0.02,270.0,3.0,0.0,270.0,12,0.59
1026752,43.744325,-79.479547,197.0,0.06,270.0,3.0,0.0,270.0,12,0.59
1028604,43.744324,-79.479547,196.9,0.09,270.0,2.99,0.0,270.0,12,0.6
1029719,43.744324,-79.479547,196.8,0.02,270.0,2.99,0.0,270.0,12,0.59
1031562,43.744325,-79.479547,196.5,0.06,270.0,2.98,0.0,270.0,12,0.59
1032677,43.744325,-79.479548,196.5,0.06,270.0,2.98,0.0,270.0,12,0.59
1033981,43.744324,-79.479546,196.2,0.11,270.0,2.97,0.0,270.0,12,0.59
1035622,43.744324,-79.479546,196.2,0.11,270.0,2.96,0.0,270.0,12,0.59
1036736,43.744324,-79.479548,196.2,0.09,270.0,2.95,0.0,270.0,12,0.59
1038582,43.744324,-79.479548,196.2,0.19,270.0,2.94,0.0,270.0,12,0.59
1039696,43.744323,-79.479548,196.0,0.13,270.0,2.93,0.0,270.0,12,0.59
1041239,43.744324,-79.479549,195.8,0.07,270.0,2.91,0.0,270.0,12,0.59
1042634,43.744324,-79.479549,195.8,0.07,270.0,2.9,0.0,270.0,12,0.59
1043750,43.744324,-79.479549,195.9,0.09,270.0,2.88,0.0,270.0,12,0.59
1045606,43.744324,-79.479549,196.1,0.07,270.0,2.86,0.0,270.0,12,0.59
1046722,43.744325,-79.479549,196.1,0.17,270.0,2.84,0.0,270.0,12,0.59
1047738,43.744325,-79.47955,196.3,0.17,270.0,2.83,0.0,270.0,12,0.59
1048756,43.744325,-79.479547,196.4,0.13,270.0,2.8,0.0,270.0,12,0.59
1049789,43.744324,-79.479547,196.7,0.11,270.0,2.78,0.0,270.0,12,0.59
1050853,43.744324,-79.479547,196.7,0.04,270.0,2.76,0.0,270.0,12,0.59
1051917,43.744323,-79.479548,196.7,0.04,270.0,2.74,0.0,270.0,12,0.59
1052984,43.744322,-79.479548,196.7,0.04,270.0,2.71,0.0,270.0,12,0.59
1054040,43.744322,-79.479548,196.7,0.04,270.0,2.68,0.0,270.0,12,0.59
1055122,43.744322,-79.479548,196.7,0.04,270.0,2.66,0.0,270.0,12,0.59
1056206,43.744322,-79.479548,196.7,0.04,270.0,2.63,0.0,270.0,12,0.59
1057249,43.744322,-79.479548,196.7,0.04,270.0,2.6,0.0,270.0,12,0.59
1058297,43.744322,-79.479548,196.7,0.04,270.0,2.57,0.0,270.0,12,0.59
1059348,43.744322,-79.479548,196.7,0.04,270.0,2.54,0.0,270.0,12,0.59
1060457,43.744322,-79.479548,196.7,0.04,270.0,2.5,0.0,270.0,12,0.59
1061485,43.744322,-79.479549,196.7,0.31,34.0,2.47,0.0,34.0,12,0.59
1062560,43.744322,-79.479548,196.7,0.06,34.0,2.44,0.0,34.0,12,0.59
1063583,43.744322,-79.479549,196.9,0.13,34.0,2.4,0.0,34.0,12,0.6
1064603,43.744322,-79.479548,197.0,0.13,34.0,2.36,0.0,34.0,12,0.59
1065620,43.744322,-79.479548,196.9,0.07,34.0,2.33,0.0,34.0,12,0.59
1066635,43.744321,-79.479547,196.8,0.13,34.0,2.29,0.0,34.0,12,0.59
1067652,43.744322,-79.479547,196.8,0.02,34.0,2.25,0.0,34.0,12,0.59
1068767,43.744322,-79.479547,196.8,0.09,34.0,2.21,0.0,34.0,12,0.59
1070611,43.744322,-79.479547,196.9,0.04,34.0,2.17,0.0,34.0,12,0.59
1071724,43.744322,-79.479547,196.8,0.06,34.0,2.13,0.0,34.0,12,0.59
1073565,43.744322,-79.479547,196.6,0.09,34.0,2.08,0.0,34.0,12,0.61
1074678,43.744322,-79.479547,196.6,0.04,34.0,2.04,0.0,34.0,12,0.59
1075952,43.744322,-79.479547,196.7,0.06,34.0,2.0,0.0,34.0,12,0.61
1077622,43.744322,-79.479547,196.8,0.06,34.0,1.95,0.0,34.0,12,0.59
1078735,43.744322,-79.479546,196.8,0.09,34.0,1.9,0.0,34.0,12,0.59
1080579,43.744322,-79.479546,196.9,0.04,34.0,1.86,0.0,34.0,12,0.59
1081694,43.744322,-79.479547,196.7,0.04,34.0,1.81,0.0,34.0,12,0.59
1083213,43.744322,-79.479549,196.4,0.06,34.0,1.76,0.0,34.0,12,0.59
1084637,43.744322,-79.479549,196.4,0.06,34.0,1.71,0.0,34.0,12,0.59
1085752,43.744321,-79.47955,196.2,0.06,34.0,1.66,0.0,34.0,12,0.59
1087604,43.74432,-79.479551,196.1,0.04,34.0,1.61,0.0,34.0,12,0.59
1088722,43.74432,-79.479551,196.1,0.0,34.0,1.56,0.0,34.0,12,0.6
1090564,43.74432,-79.479551,196.3,0.0,34.0,1.51,0.0,34.0,12,0.59
1091677,43.74432,-79.47955,196.4,0.13,34.0,1.46,0.0,34.0,12,0.59
1092944,43.74432,-79.479551,196.4,0.39,34.0,1.41,-23.34,34.0,12,0.59
1094621,43.74432,-79.479552,195.9,0.39,34.0,1.35,-23.34,34.0,12,0.59
1095736,43.744321,-79.479551,196.1,0.17,34.0,1.3,-23.34,34.0,12,0.59
1097585,43.744321,-79.479551,195.9,0.11,34.0,1.24,0.0,34.0,12,0.59
1098700,43.744322,-79.479551,195.9,0.19,34.0,1.19,0.0,34.0,12,0.59
1100322,43.744322,-79.479554,195.9,0.06,34.0,1.13,0.0,34.0,12,0.59
1101645,43.744322,-79.479554,195.9,0.06,34.0,1.08,0.0,34.0,12,0.59
1102760,43.74432,-79.479555,196.0,0.33,34.0,1.02,0.0,34.0,12,0.59
1104605,43.744321,-79.479556,196.1,0.06,34.0,0.97,0.0,34.0,12,0.59
1105718,43.744322,-79.479557,196.2,0.09,34.0,0.91,0.0,34.0,12,0.59
1107554,43.744322,-79.479557,196.2,0.11,34.0,0.85,0.0,34.0,12,0.6
1108667,43.744323,-79.479557,196.1,0.2,34.0,0.79,0.0,34.0,12,0.59
1109835,43.744324,-79.479555,196.2,0.02,34.0,0.74,0.0,34.0,12,0.59
1111614,43.744325,-79.479555,196.0,0.04,34.0,0.68,0.0,34.0,12,0.59
1112727,43.744325,-79.479556,196.1,0.11,34.0,0.62,0.0,34.0,12,0.59
1114585,43.744326,-79.479555,196.1,0.02,34.0,0.56,0.0,34.0,12,0.59
1115700,43.744326,-79.479555,196.0,0.17,34.0,0.5,0.0,34.0,12,0.59
1117244,43.744325,-79.479553,195.9,0.13,34.0,0.44,0.0,34.0,12,0.59
1118639,43.744325,-79.479553,195.9,0.13,34.0,0.38,0.0,34.0,12,0.59
1119752,43.744324,-79.479551,196.0,0.15,34.0,0.32,0.0,34.0,12,0.59
1121604,43.744325,-79.479549,196.0,0.02,34.0,0.26,0.0,34.0,12,0.59
1122719,43.744325,-79.479548,196.1,0.06,34.0,0.2,0.0,34.0,12,0.59
1124558,43.744325,-79.479547,195.9,0.11,34.0,0.14,0.0,34.0,12,0.59
1125673,43.744325,-79.479547,196.0,0.11,34.0,0.08,0.0,34.0,12,0.59
1126943,43.744324,-79.479547,196.1,0.11,34.0,0.02,0.0,34.0,12,0.59
1128618,43.744324,-79.479546,196.2,0.11,34.0,-0.04,0.0,34.0,12,0.59
1129732,43.744324,-79.479546,196.3,0.07,34.0,-0.1,0.0,34.0,12,0.59
1131580,43.744324,-79.479545,196.3,0.06,34.0,-0.16,0.0,34.0,12,0.59
1132693,43.744324,-79.479545,196.4,0.09,34.0,-0.22,0.0,34.0,12,0.59
1134195,43.744323,-79.479546,196.2,0.19,34.0,-0.28,0.0,34.0,12,0.59
1135630,43.744323,-79.479546,196.2,0.19,34.0,-0.34,0.0,34.0,12,0.59
1136746,43.744322,-79.479547,196.0,0.09,34.0,-0.39,0.0,34.0,12,0.59
1138595,43.744322,-79.479549,195.9,0.17,34.0,-0.45,0.0,34.0,12,0.59
1139713,43.744322,-79.479548,195.8,0.09,34.0,-0.51,-13.71,34.0,12,0.59
1141505,43.744323,-79.479548,195.6,0.46,34.0,-0.57,-13.71,34.0,12,0.59
1142651,43.744324,-79.479547,195.5,0.13,34.0,-0.63,-13.71,34.0,12,0.59
1143767,43.744324,-79.479546,195.6,0.13,34.0,-0.69,0.0,34.0,12,0.59
1145613,43.744327,-79.479546,195.5,0.06,34.0,-0.75,0.0,34.0,12,0.59
1146729,43.744327,-79.479546,195.5,0.11,34.0,-0.81,0.0,34.0,12,0.59
1148577,43.744327,-79.479546,195.3,0.11,34.0,-0.86,0.0,34.0,12,0.59
1149692,43.744327,-79.479546,195.2,0.17,34.0,-0.92,0.0,34.0,12,0.59
1151226,43.744327,-79.479547,195.1,0.13,34.0,-0.98,0.0,34.0,12,0.59
1152638,43.744327,-79.479547,195.1,0.13,34.0,-1.03,0.0,34.0,12,0.59
1153752,43.744326,-79.479548,195.4,0.13,34.0,-1.09,0.0,34.0,12,0.59
1155600,43.744327,-79.479548,195.4,0.07,34.0,-1.15,0.0,34.0,12,0.59
1156714,43.744327,-79.479548,195.5,0.2,34.0,-1.2,0.0,34.0,12,0.59
1158539,43.744328,-79.479549,195.5,0.06,34.0,-1.26,0.0,34.0,12,0.59
1159653,43.744329,-79.479549,195.5,0.06,34.0,-1.31,0.0,34.0,12,0.59
1160767,43.744329,-79.479549,195.5,0.13,34.0,-1.36,0.0,34.0,12,0.59
1162610,43.744327,-79.47955,195.4,0.11,34.0,-1.42,0.0,34.0,12,0.59
1163724,43.744327,-79.479551,195.4,0.04,34.0,-1.47,0.0,34.0,12,0.59
1165569,43.744328,-79.47955,195.2,0.15,34.0,-1.52,0.0,34.0,12,0.59
1166682,43.74433,-79.47955,195.0,0.06,34.0,-1.57,0.0,34.0,12,0.59
1167995,43.744329,-79.479551,194.6,0.09,34.0,-1.62,0.0,34.0,12,0.59
1169623,43.744329,-79.479551,194.6,0.09,34.0,-1.67,0.0,34.0,12,0.59
1170737,43.744329,-79.479551,194.3,0.17,34.0,-1.72,0.0,34.0,12,0.59
1172587,43.744331,-79.479551,194.1,0.06,34.0,-1.77,0.0,34.0,12,0.59
1173702,43.744332,-79.479551,194.0,0.09,34.0,-1.82,0.0,34.0,12,0.59
1175350,43.744334,-79.479551,193.7,0.09,34.0,-1.87,0.0,34.0,12,0.59
1176645,43.744334,-79.479551,193.7,0.04,34.0,-1.91,0.0,34.0,12,0.59
1177763,43.744335,-79.479551,193.6,0.15,34.0,-1.96,0.0,34.0,12,0.59
1179613,43.744334,-79.479551,193.7,0.06,34.0,-2.0,0.0,34.0,12,0.59
1180728,43.744335,-79.479551,193.7,0.09,34.0,-2.05,0.0,34.0,12,0.59
1182575,43.744337,-79.479551,193.8,0.02,34.0,-2.09,0.0,34.0,12,0.59
1183690,43.744337,-79.479551,193.9,0.04,34.0,-2.14,0.0,34.0,12,0.59
1185184,43.744338,-79.479551,193.8,0.04,34.0,-2.18,0.0,34.0,12,0.59
1186635,43.744338,-79.479551,193.8,0.04,34.0,-2.22,0.0,34.0,12,0.59
1187750,43.744338,-79.479552,193.8,0.06,34.0,-2.26,0.0,34.0,12,0.59
1189603,43.744338,-79.479552,193.9,0.07,34.0,-2.3,0.0,34.0,12,0.59
1190721,43.744338,-79.479552,194.0,0.04,34.0,-2.33,0.0,34.0,12,0.59
1192565,43.744338,-79.479551,194.4,0.06,34.0,-2.37,0.0,34.0,12,0.59
1193680,43.744336,-79.47955,194.5,0.06,34.0,-2.41,0.0,34.0,12,0.59
1195025,43.744336,-79.47955,194.4,0.17,34.0,-2.44,0.0,34.0,12,0.59
1196626,43.744336,-79.47955,194.4,0.17,34.0,-2.48,0.0,34.0,12,0.59
1197741,43.744336,-79.47955,194.5,0.09,34.0,-2.51,14.98,34.0,12,0.59
1199591,43.744336,-79.479549,194.7,0.39,34.0,-2.54,14.98,34.0,12,0.59
1200704,43.744335,-79.47955,195.1,0.13,34.0,-2.57,14.98,34.0,12,0.59
1202372,43.744335,-79.479548,195.6,0.15,34.0,-2.6,0.0,34.0,12,0.59
1203642,43.744335,-79.479547,195.6,0.26,34.0,-2.63,0.0,34.0,12,0.59
1204756,43.744334,-79.479546,195.9,0.3,34.0,-2.66,0.0,34.0,12,0.59
1206606,43.744335,-79.479544,196.6,0.07,34.0,-2.69,0.0,34.0,12,0.59
1207720,43.744335,-79.479544,196.8,0.09,34.0,-2.72,0.0,34.0,12,0.59
1209562,43.744336,-79.479546,196.9,0.13,34.0,-2.74,0.0,34.0,12,0.59
1210678,43.744338,-79.479546,196.6,0.04,34.0,-2.76,0.0,34.0,12,0.59
1212037,43.744338,-79.479546,196.3,0.28,34.0,-2.79,0.0,34.0,12,0.59
1213624,43.744338,-79.479546,196.3,0.28,34.0,-2.81,0.0,34.0,12,0.59
1214740,43.744341,-79.479546,196.2,0.02,34.0,-2.83,-8.1,34.0,12,0.59
1216594,43.744341,-79.479546,196.1,0.43,34.0,-2.85,-8.1,34.0,12,0.59
1217710,43.744341,-79.479546,196.0,0.11,34.0,-2.87,-8.1,34.0,12,0.59
1219513,43.744341,-79.479544,195.9,0.13,34.0,-2.88,0.0,34.0,12,0.59
1220651,43.744341,-79.479543,195.8,0.02,34.0,-2.9,0.0,34.0,12,0.59
1221768,43.744341,-79.479542,195.8,0.2,34.0,-2.91,-13.91,34.0,12,0.59
1223624,43.744342,-79.479542,195.4,0.87,274.02,-2.93,-27.11,274.02,12,0.59
1224740,43.744342,-79.479543,195.3,0.39,274.02,-2.94,-27.11,274.02,12,0.59
1226598,43.744342,-79.479544,195.2,0.15,274.02,-2.95,-13.2,274.02,12,0.59
1227713,43.744342,-79.479545,195.2,0.2,274.02,-2.96,0.0,274.02,12,0.59
1229554,43.744342,-79.479545,195.2,0.09,274.02,-2.97,-20.06,274.02,12,0.59
1230669,43.744341,-79.479544,195.0,0.37,274.02,-2.98,-27.92,274.02,12,0.59
1231865,43.744341,-79.479543,194.9,0.69,211.82,-2.98,-27.92,211.82,12,0.59
1233632,43.74434,-79.479542,194.9,0.19,211.82,-2.99,-16.43,211.82,12,0.59
1234747,43.74434,-79.479541,194.8,0.67,211.82,-2.99,-8.58,211.82,12,0.59
1236598,43.74434,-79.479538,194.7,0.35,211.82,-3.0,-19.1,211.82,12,0.59
1237725,43.744339,-79.479535,194.5,1.04,176.8,-3.0,-7.86,176.8,12,0.59
1239598,43.744333,-79.479525,194.6,1.37,130.44,-3.0,-4.77,130.44,12,0.59
1240725,43.744331,-79.479519,194.7,1.96,121.92,-3.0,3.67,121.92,12,0.65
1242600,43.744332,-79.479494,194.4,5.28,82.99,-3.0,-0.46,82.99,12,0.59
1243725,43.744336,-79.47948,194.3,4.15,73.02,-2.99,-3.55,73.02,12,0.59
1245594,43.74435,-79.479467,194.3,3.93,37.57,-2.99,0.55,37.57,12,0.59
1246719,43.744353,-79.479457,194.4,3.02,55.85,-2.98,3.79,55.85,12,0.59
1248586,43.744355,-79.47945,194.5,2.07,83.98,-2.98,3.79,83.98,12,0.59
1249709,43.744355,-79.479447,194.5,0.98,75.01,-2.97,-7.5,75.01,12,0.6
1251605,43.744353,-79.479451,194.0,1.8,221.39,-2.96,-9.27,221.39,12,0.59
1252634,43.74435,-79.479454,194.0,1.17,222.37,-2.95,-9.27,222.37,12,0.59
1253651,43.744348,-79.479456,194.0,0.44,222.37,-2.94,0.0,222.37,12,0.59
1254670,43.744347,-79.479457,194.0,0.3,222.37,-2.93,0.0,222.37,12,0.59
1255687,43.744345,-79.479459,194.0,0.13,222.37,-2.91,0.0,222.37,12,0.59
1256700,43.744344,-79.479461,194.2,0.09,222.37,-2.9,0.0,222.37,12,0.59
1257716,43.744342,-79.479462,194.3,0.09,222.37,-2.88,0.0,222.37,12,0.59
1258733,43.744343,-79.479462,194.2,0.09,222.37,-2.86,0.0,222.37,12,0.59
1259760,43.744341,-79.479463,194.4,0.07,222.37,-2.85,0.0,222.37,12,0.6
1260988,43.74434,-79.479465,194.2,0.24,222.37,-2.83,0.0,222.37,12,0.6
1262131,43.74434,-79.479465,194.2,0.24,222.37,-2.81,0.0,222.37,12,0.6
1263300,43.74434,-79.479465,194.2,0.24,222.37,-2.78,0.0,222.37,12,0.6
1264558,43.74434,-79.479465,194.2,0.24,222.37,-2.76,0.0,222.37,12,0.6
1265607,43.744335,-79.479467,194.4,0.24,222.37,-2.74,0.0,222.37,12,0.59
